{
"type": "FeatureCollection",
"name": "AQStations_BE_wgs84",
"crs": { "type": "name", "properties": { "name": "urn:ogc:def:crs:OGC:1.3:CRS84" } },
"features": [
{ "type": "Feature", "properties": { "station_id": 1030, "ab_local_code": "40AL01", "ab_eoi_code": "BELAL01", "ab_name": "40AL01 - Linkeroever", "ab_area_type_of_station": "suburban - Background", "network": "Flanders" }, "geometry": { "type": "Point", "coordinates": [ 4.38522368445472, 51.236194199911587 ] } },
{ "type": "Feature", "properties": { "station_id": 1031, "ab_local_code": "40AL02", "ab_eoi_code": "BELAL02", "ab_name": "40AL02 - Beveren", "ab_area_type_of_station": "suburban - Industrial", "network": "Flanders" }, "geometry": { "type": "Point", "coordinates": [ 4.234832753144063, 51.304520790353273 ] } },
{ "type": "Feature", "properties": { "station_id": 1032, "ab_local_code": "40AL03", "ab_eoi_code": "BELAL03", "ab_name": "40AL03 - Beveren", "ab_area_type_of_station": "suburban - Industrial", "network": "Flanders" }, "geometry": { "type": "Point", "coordinates": [ 4.201460395126576, 51.253964880679035 ] } },
{ "type": "Feature", "properties": { "station_id": 1033, "ab_local_code": "40AL04", "ab_eoi_code": "BELAL04", "ab_name": "40AL04 - Beveren", "ab_area_type_of_station": "suburban - Industrial", "network": "Flanders" }, "geometry": { "type": "Point", "coordinates": [ 4.293329476940388, 51.290667526755811 ] } },
{ "type": "Feature", "properties": { "station_id": 1034, "ab_local_code": "40AL05", "ab_eoi_code": "BELAL05", "ab_name": "40AL05 - Beveren", "ab_area_type_of_station": "suburban - Industrial", "network": "Flanders" }, "geometry": { "type": "Point", "coordinates": [ 4.278889821667833, 51.263117716882753 ] } },
{ "type": "Feature", "properties": { "station_id": 1749, "ab_local_code": "40EG05", "ab_eoi_code": "BELEG05", "ab_name": "40EG05 - Rieme", "ab_area_type_of_station": "suburban - Industrial", "network": "Flanders" }, "geometry": { "type": "Point", "coordinates": [ 3.786084652396538, 51.174053838778818 ] } },
{ "type": "Feature", "properties": { "station_id": 1048, "ab_local_code": "40HB23", "ab_eoi_code": "BELHB23", "ab_name": "40HB23 - Hoboken", "ab_area_type_of_station": "suburban - Background", "network": "Flanders" }, "geometry": { "type": "Point", "coordinates": [ 4.341005064562845, 51.170298038444656 ] } },
{ "type": "Feature", "properties": { "station_id": 1058, "ab_local_code": "40LD01", "ab_eoi_code": "BELLD01", "ab_name": "40LD01 - Laakdal", "ab_area_type_of_station": "suburban - Industrial", "network": "Flanders" }, "geometry": { "type": "Point", "coordinates": [ 5.004864393587768, 51.109976120476368 ] } },
{ "type": "Feature", "properties": { "station_id": 1059, "ab_local_code": "40LD02", "ab_eoi_code": "BELLD02", "ab_name": "40LD02 - Laakdal", "ab_area_type_of_station": "suburban - Background", "network": "Flanders" }, "geometry": { "type": "Point", "coordinates": [ 5.02154597760984, 51.120384137108793 ] } },
{ "type": "Feature", "properties": { "station_id": 1157, "ab_local_code": "40R822", "ab_eoi_code": "BETR822", "ab_name": "40R822 - Antwerpen", "ab_area_type_of_station": "urban - Industrial", "network": "Flanders" }, "geometry": { "type": "Point", "coordinates": [ 4.341279992464667, 51.264289784257741 ] } },
{ "type": "Feature", "properties": { "station_id": 1163, "ab_local_code": "40R891", "ab_eoi_code": "BETR891", "ab_name": "40R891 - Antwerpen", "ab_area_type_of_station": "suburban - Industrial", "network": "Flanders" }, "geometry": { "type": "Point", "coordinates": [ 4.385359826049382, 51.255806644323684 ] } },
{ "type": "Feature", "properties": { "station_id": 1164, "ab_local_code": "40R892", "ab_eoi_code": "BETR892", "ab_name": "40R892 - Kallo", "ab_area_type_of_station": "suburban - Industrial", "network": "Flanders" }, "geometry": { "type": "Point", "coordinates": [ 4.278889976505928, 51.263036822824027 ] } },
{ "type": "Feature", "properties": { "station_id": 1168, "ab_local_code": "40R897", "ab_eoi_code": "BETR897", "ab_name": "40R897 - Antwerpen", "ab_area_type_of_station": "suburban - Industrial", "network": "Flanders" }, "geometry": { "type": "Point", "coordinates": [ 4.342104511322138, 51.250106498316264 ] } },
{ "type": "Feature", "properties": { "station_id": 1073, "ab_local_code": "40SZ01", "ab_eoi_code": "BELSZ01", "ab_name": "40SZ01 - Steenokkerzeel", "ab_area_type_of_station": "suburban - Traffic", "network": "Flanders" }, "geometry": { "type": "Point", "coordinates": [ 4.50418332331232, 50.914576137176589 ] } },
{ "type": "Feature", "properties": { "station_id": 1107, "ab_local_code": "40ZL01", "ab_eoi_code": "BELZL01", "ab_name": "40ZL01 - Zelzate", "ab_area_type_of_station": "suburban - Industrial", "network": "Flanders" }, "geometry": { "type": "Point", "coordinates": [ 3.808400323951658, 51.203141426081494 ] } },
{ "type": "Feature", "properties": { "station_id": 1109, "ab_local_code": "41B001", "ab_eoi_code": "BETB001", "ab_name": "41B001 - Arts-Loi", "ab_area_type_of_station": "unknown - Unknown", "network": "Brussels" }, "geometry": { "type": "Point", "coordinates": [ 4.368681223461492, 50.845715100938236 ] } },
{ "type": "Feature", "properties": { "station_id": 1110, "ab_local_code": "41B004", "ab_eoi_code": "BETB004", "ab_name": "41B004 - Bruxelles (Sainte-Catherine)", "ab_area_type_of_station": "urban - Traffic", "network": "Brussels" }, "geometry": { "type": "Point", "coordinates": [ 4.348587474273883, 50.850810536804644 ] } },
{ "type": "Feature", "properties": { "station_id": 1112, "ab_local_code": "41B006", "ab_eoi_code": "BETB006", "ab_name": "41B006 - Bruxelles (Parlement UE)", "ab_area_type_of_station": "urban - Background", "network": "Brussels" }, "geometry": { "type": "Point", "coordinates": [ 4.374388283352738, 50.838631187643983 ] } },
{ "type": "Feature", "properties": { "station_id": 1711, "ab_local_code": "41B008", "ab_eoi_code": "BETB008", "ab_name": "41B008 - Brussel (Beliardstraat)", "ab_area_type_of_station": "unknown - Unknown", "network": "Brussels" }, "geometry": { "type": "Point", "coordinates": [ 4.376149069749031, 50.84078856651 ] } },
{ "type": "Feature", "properties": { "station_id": 1113, "ab_local_code": "41B011", "ab_eoi_code": "BETB011", "ab_name": "41B011 - Berchem-Sainte-Agathe", "ab_area_type_of_station": "suburban - Background", "network": "Brussels" }, "geometry": { "type": "Point", "coordinates": [ 4.288336366305906, 50.85803059328672 ] } },
{ "type": "Feature", "properties": { "station_id": 1149, "ab_local_code": "42R811", "ab_eoi_code": "BETR811", "ab_name": "42R811 - Schoten", "ab_area_type_of_station": "suburban - Background", "network": "Flanders" }, "geometry": { "type": "Point", "coordinates": [ 4.491362027935444, 51.252103411853838 ] } },
{ "type": "Feature", "properties": { "station_id": 1721, "ab_local_code": "42R817", "ab_eoi_code": "BETR817", "ab_name": "42R817 - Antwerpen (Groenenborgerlaan)", "ab_area_type_of_station": "suburban - Industrial", "network": "Flanders" }, "geometry": { "type": "Point", "coordinates": [ 4.417948637777736, 51.17713088780296 ] } },
{ "type": "Feature", "properties": { "station_id": 1710, "ab_local_code": "42R834", "ab_eoi_code": "BETR834", "ab_name": "42R834 - Boom", "ab_area_type_of_station": "unknown - Unknown", "network": "Flanders" }, "geometry": { "type": "Point", "coordinates": [ 4.380103544882495, 51.092000037513792 ] } },
{ "type": "Feature", "properties": { "station_id": 1744, "ab_local_code": "42R842", "ab_eoi_code": "BETR842", "ab_name": "42R842 - Mechelen (Hendrik Speecqvest)", "ab_area_type_of_station": "suburban - Industrial", "network": "Flanders" }, "geometry": { "type": "Point", "coordinates": [ 4.483255334197501, 51.020374444327757 ] } },
{ "type": "Feature", "properties": { "station_id": 1165, "ab_local_code": "42R893", "ab_eoi_code": "BETR893", "ab_name": "42R893 - Antwerpen", "ab_area_type_of_station": "suburban - Industrial", "network": "Flanders" }, "geometry": { "type": "Point", "coordinates": [ 4.385770619511012, 51.281378055761941 ] } },
{ "type": "Feature", "properties": { "station_id": 1745, "ab_local_code": "42ZD01", "ab_eoi_code": "BETZD01", "ab_name": "42ZD01 - Zwijndrecht (Binnenplein)", "ab_area_type_of_station": "unknown - Industrial", "network": "Flanders" }, "geometry": { "type": "Point", "coordinates": [ 4.325923016227136, 51.215496712244054 ] } },
{ "type": "Feature", "properties": { "station_id": 1746, "ab_local_code": "42ZD08", "ab_eoi_code": "BETZD08", "ab_name": "42ZD08 - Zwijndrecht (Neerstraat)", "ab_area_type_of_station": "unknown - Industrial", "network": "Flanders" }, "geometry": { "type": "Point", "coordinates": [ 4.331523918163803, 51.227309314343586 ] } },
{ "type": "Feature", "properties": { "station_id": 1044, "ab_local_code": "40GK06", "ab_eoi_code": "BELGK06", "ab_name": "40GK06 - Genk", "ab_area_type_of_station": "urban - Industrial", "network": "Flanders" }, "geometry": { "type": "Point", "coordinates": [ 5.470620037487627, 50.927891843275361 ] } },
{ "type": "Feature", "properties": { "station_id": 1046, "ab_local_code": "40GK11", "ab_eoi_code": "BETGK11", "ab_name": "40GK11 - Genk", "ab_area_type_of_station": "urban - Industrial", "network": "Flanders" }, "geometry": { "type": "Point", "coordinates": [ 5.520312797653717, 50.93148760351275 ] } },
{ "type": "Feature", "properties": { "station_id": 1062, "ab_local_code": "40MN01", "ab_eoi_code": "BELMN01", "ab_name": "40MN01 - Menen", "ab_area_type_of_station": "suburban - Background", "network": "Flanders" }, "geometry": { "type": "Point", "coordinates": [ 3.109641874498667, 50.793469044323388 ] } },
{ "type": "Feature", "properties": { "station_id": 1066, "ab_local_code": "40OB01", "ab_eoi_code": "BELOB01", "ab_name": "40OB01 - Oostrozebeke", "ab_area_type_of_station": "rural - Industrial", "network": "Flanders" }, "geometry": { "type": "Point", "coordinates": [ 3.307385799335759, 50.917228441036542 ] } },
{ "type": "Feature", "properties": { "station_id": 1714, "ab_local_code": "40OB02", "ab_eoi_code": "BELOB02", "ab_name": "40OB02 - Wielsbeke", "ab_area_type_of_station": "suburban - Background", "network": "Flanders" }, "geometry": { "type": "Point", "coordinates": [ 3.376211631086023, 50.914952960890844 ] } },
{ "type": "Feature", "properties": { "station_id": 1161, "ab_local_code": "40R833", "ab_eoi_code": "BELR833", "ab_name": "40R833 - Stabroek", "ab_area_type_of_station": "rural - Background", "network": "Flanders" }, "geometry": { "type": "Point", "coordinates": [ 4.362260593200374, 51.327658871504518 ] } },
{ "type": "Feature", "properties": { "station_id": 1719, "ab_local_code": "40SA04", "ab_eoi_code": "BELSA04", "ab_name": "40SA04 - Hoevenen", "ab_area_type_of_station": "suburban - Industrial", "network": "Flanders" }, "geometry": { "type": "Point", "coordinates": [ 4.403868139749611, 51.313928894153868 ] } },
{ "type": "Feature", "properties": { "station_id": 1095, "ab_local_code": "40WZ02", "ab_eoi_code": "BELWZ02", "ab_name": "40WZ02 - Mol", "ab_area_type_of_station": "suburban - Industrial", "network": "Flanders" }, "geometry": { "type": "Point", "coordinates": [ 5.221534079093098, 51.192800333205881 ] } },
{ "type": "Feature", "properties": { "station_id": 1159, "ab_local_code": "42R831", "ab_eoi_code": "BETR831", "ab_name": "42R831 - Berendrecht", "ab_area_type_of_station": "suburban - Industrial", "network": "Flanders" }, "geometry": { "type": "Point", "coordinates": [ 4.339709947119869, 51.348795291941066 ] } },
{ "type": "Feature", "properties": { "station_id": 1170, "ab_local_code": "43H201", "ab_eoi_code": "BETH201", "ab_name": "43H201 - Liège", "ab_area_type_of_station": "suburban - Background", "network": "Wallonia" }, "geometry": { "type": "Point", "coordinates": [ 5.547464182570817, 50.624991568908328 ] } },
{ "type": "Feature", "properties": { "station_id": 1171, "ab_local_code": "43M204", "ab_eoi_code": "BETM204", "ab_name": "43M204 - Angleur", "ab_area_type_of_station": "suburban - Background", "network": "Wallonia" }, "geometry": { "type": "Point", "coordinates": [ 5.611149762819438, 50.611922706563547 ] } },
{ "type": "Feature", "properties": { "station_id": 1750, "ab_local_code": "41BUL1", "ab_eoi_code": "BETBUL1", "ab_name": "41BUL1 - Brussel (Bld du Midi)", "ab_area_type_of_station": "unknown - Unknown", "network": "Brussels" }, "geometry": { "type": "Point", "coordinates": [ 4.341821001555247, 50.837909259211557 ] } },
{ "type": "Feature", "properties": { "station_id": 1742, "ab_local_code": "41CHA1", "ab_eoi_code": "BETCHA1", "ab_name": "41CHA1 - Brussel (Ganshoren)", "ab_area_type_of_station": "unknown - Unknown", "network": "Brussels" }, "geometry": { "type": "Point", "coordinates": [ 4.306158790881908, 50.870365916616379 ] } },
{ "type": "Feature", "properties": { "station_id": 1116, "ab_local_code": "41MEU1", "ab_eoi_code": "BETMEU1", "ab_name": "41MEU1 - Meudon", "ab_area_type_of_station": "suburban - Background", "network": "Brussels" }, "geometry": { "type": "Point", "coordinates": [ 4.392717697566157, 50.895100562042039 ] } },
{ "type": "Feature", "properties": { "station_id": 1117, "ab_local_code": "41N043", "ab_eoi_code": "BETN043", "ab_name": "41N043 - Haren", "ab_area_type_of_station": "suburban - Industrial", "network": "Brussels" }, "geometry": { "type": "Point", "coordinates": [ 4.382963251802339, 50.883559811392018 ] } },
{ "type": "Feature", "properties": { "station_id": 1118, "ab_local_code": "41R001", "ab_eoi_code": "BETR001", "ab_name": "41R001 - Molenbeek-Saint-Jean", "ab_area_type_of_station": "urban - Traffic", "network": "Brussels" }, "geometry": { "type": "Point", "coordinates": [ 4.333819707712016, 50.849665488077839 ] } },
{ "type": "Feature", "properties": { "station_id": 1119, "ab_local_code": "41R002", "ab_eoi_code": "BETR002", "ab_name": "41R002 - Ixelles", "ab_area_type_of_station": "suburban - Traffic", "network": "Brussels" }, "geometry": { "type": "Point", "coordinates": [ 4.384718841699584, 50.82512787296703 ] } },
{ "type": "Feature", "properties": { "station_id": 1122, "ab_local_code": "41R012", "ab_eoi_code": "BETR012", "ab_name": "41R012 - Uccle", "ab_area_type_of_station": "suburban - Background", "network": "Brussels" }, "geometry": { "type": "Point", "coordinates": [ 4.358538856351679, 50.796631638507847 ] } },
{ "type": "Feature", "properties": { "station_id": 1741, "ab_local_code": "41REG1", "ab_eoi_code": "BETREG1", "ab_name": "41REG1 - Brussel (Bld du Régent)", "ab_area_type_of_station": "unknown - Unknown", "network": "Brussels" }, "geometry": { "type": "Point", "coordinates": [ 4.367005785367071, 50.843566603205126 ] } },
{ "type": "Feature", "properties": { "station_id": 1754, "ab_local_code": "41VBX1", "ab_eoi_code": "BETVBX1", "ab_name": "41VBX1 - Brussel (Rue de Grand Ile)", "ab_area_type_of_station": "unknown - Unknown", "network": "Brussels" }, "geometry": { "type": "Point", "coordinates": [ 4.346090383271139, 50.846081614366888 ] } },
{ "type": "Feature", "properties": { "station_id": 1755, "ab_local_code": "41VBX2", "ab_eoi_code": "BETVBX2", "ab_name": "41VBX2 - Brussel (Rue des Tanneurs)", "ab_area_type_of_station": "unknown - Unknown", "network": "Brussels" }, "geometry": { "type": "Point", "coordinates": [ 4.346831357738303, 50.840283509704875 ] } },
{ "type": "Feature", "properties": { "station_id": 1756, "ab_local_code": "41VBX3", "ab_eoi_code": "BETVBX3", "ab_name": "41VBX3 - Brussel (Rue de Laeken)", "ab_area_type_of_station": "unknown - Unknown", "network": "Brussels" }, "geometry": { "type": "Point", "coordinates": [ 4.352448633491195, 50.855018198798454 ] } },
{ "type": "Feature", "properties": { "station_id": 1747, "ab_local_code": "42AL09", "ab_eoi_code": "BETAL09", "ab_name": "42AL09 - Antwerpen (Van Averbekelaan)", "ab_area_type_of_station": "unknown - Industrial", "network": "Flanders" }, "geometry": { "type": "Point", "coordinates": [ 4.376531512921884, 51.229813418165612 ] } },
{ "type": "Feature", "properties": { "station_id": 1748, "ab_local_code": "42AL10", "ab_eoi_code": "BETAL10", "ab_name": "42AL10 - Antwerpen (Blancefloerlaan)", "ab_area_type_of_station": "unknown - Industrial", "network": "Flanders" }, "geometry": { "type": "Point", "coordinates": [ 4.368457194756131, 51.219890558055731 ] } },
{ "type": "Feature", "properties": { "station_id": 1738, "ab_local_code": "42BO01", "ab_eoi_code": "BETBO01", "ab_name": "42BO01 - Bonheiden", "ab_area_type_of_station": "rural - Background", "network": "Flanders" }, "geometry": { "type": "Point", "coordinates": [ 4.516483717002175, 51.027061046566871 ] } },
{ "type": "Feature", "properties": { "station_id": 1751, "ab_local_code": "42DU07", "ab_eoi_code": "BETDU07", "ab_name": "40DU07 - Deurne", "ab_area_type_of_station": "urban - Traffic", "network": "Flanders" }, "geometry": { "type": "Point", "coordinates": [ 4.448749903341612, 51.226388591052732 ] } },
{ "type": "Feature", "properties": { "station_id": 1731, "ab_local_code": "42HH08", "ab_eoi_code": "BELHH08", "ab_name": "42HH08 - Houthalen-Helchteren", "ab_area_type_of_station": "suburban - Industrial", "network": "Flanders" }, "geometry": { "type": "Point", "coordinates": [ 5.376386684238969, 51.031601785133418 ] } },
{ "type": "Feature", "properties": { "station_id": 1127, "ab_local_code": "42M802", "ab_eoi_code": "BETM802", "ab_name": "42M802 - Antwerpen", "ab_area_type_of_station": "urban - Industrial", "network": "Flanders" }, "geometry": { "type": "Point", "coordinates": [ 4.424399006935333, 51.260989707476156 ] } },
{ "type": "Feature", "properties": { "station_id": 1757, "ab_local_code": "42MK02", "ab_eoi_code": "BETMK02", "ab_name": "42MK02 - Merksem", "ab_area_type_of_station": "urban - Traffic", "network": "Flanders" }, "geometry": { "type": "Point", "coordinates": [ 4.427522934333514, 51.250507862517274 ] } },
{ "type": "Feature", "properties": { "station_id": 1132, "ab_local_code": "42N016", "ab_eoi_code": "BETN016", "ab_name": "42N016 - Dessel", "ab_area_type_of_station": "rural - Background", "network": "Flanders" }, "geometry": { "type": "Point", "coordinates": [ 5.163978846331758, 51.233652206171485 ] } },
{ "type": "Feature", "properties": { "station_id": 1136, "ab_local_code": "42N027", "ab_eoi_code": "BETN027", "ab_name": "42N027 - Bree", "ab_area_type_of_station": "rural - Background", "network": "Flanders" }, "geometry": { "type": "Point", "coordinates": [ 5.60665921970447, 51.133716696022326 ] } },
{ "type": "Feature", "properties": { "station_id": 1137, "ab_local_code": "42N035", "ab_eoi_code": "BETN035", "ab_name": "42N035 - Aarschot", "ab_area_type_of_station": "suburban - Background", "network": "Flanders" }, "geometry": { "type": "Point", "coordinates": [ 4.837618015698616, 50.977541378123838 ] } },
{ "type": "Feature", "properties": { "station_id": 1138, "ab_local_code": "42N040", "ab_eoi_code": "BETN040", "ab_name": "42N040 - Sint-Pieters-Leeuw (3m)", "ab_area_type_of_station": "rural - Background", "network": "Flanders" }, "geometry": { "type": "Point", "coordinates": [ 4.225194246746715, 50.768137513265295 ] } },
{ "type": "Feature", "properties": { "station_id": 1141, "ab_local_code": "42N046", "ab_eoi_code": "BETN046", "ab_name": "42N046 - Gellik", "ab_area_type_of_station": "rural - Background", "network": "Flanders" }, "geometry": { "type": "Point", "coordinates": [ 5.618873985239511, 50.882298825837758 ] } },
{ "type": "Feature", "properties": { "station_id": 1734, "ab_local_code": "42N047", "ab_eoi_code": "BETN047", "ab_name": "42N047 - Hasselt", "ab_area_type_of_station": "suburban - Background", "network": "Flanders" }, "geometry": { "type": "Point", "coordinates": [ 5.354360289979901, 50.936189381863485 ] } },
{ "type": "Feature", "properties": { "station_id": 1142, "ab_local_code": "42N054", "ab_eoi_code": "BETN054", "ab_name": "42N054 - Walshoutem", "ab_area_type_of_station": "rural - Background", "network": "Flanders" }, "geometry": { "type": "Point", "coordinates": [ 5.103158609453956, 50.711706093743636 ] } },
{ "type": "Feature", "properties": { "station_id": 1739, "ab_local_code": "42OT02", "ab_eoi_code": "BETOT02", "ab_name": "42OT02 - Oud-Turnhout", "ab_area_type_of_station": "rural - Background", "network": "Flanders" }, "geometry": { "type": "Point", "coordinates": [ 5.011792691852891, 51.34654782559091 ] } },
{ "type": "Feature", "properties": { "station_id": 1143, "ab_local_code": "42R010", "ab_eoi_code": "BETR010", "ab_name": "42R010 - Sint-Stevens-Woluwe", "ab_area_type_of_station": "suburban - Background", "network": "Flanders" }, "geometry": { "type": "Point", "coordinates": [ 4.428427283561211, 50.865107883454492 ] } },
{ "type": "Feature", "properties": { "station_id": 1146, "ab_local_code": "42R020", "ab_eoi_code": "BETR020", "ab_name": "42R020 - Vilvoorde", "ab_area_type_of_station": "suburban - Traffic", "network": "Flanders" }, "geometry": { "type": "Point", "coordinates": [ 4.436720763534069, 50.941387114603586 ] } },
{ "type": "Feature", "properties": { "station_id": 1147, "ab_local_code": "42R801", "ab_eoi_code": "BETR801", "ab_name": "42R801 - Borgerhout", "ab_area_type_of_station": "urban - Traffic", "network": "Flanders" }, "geometry": { "type": "Point", "coordinates": [ 4.431821046968845, 51.209662530919182 ] } },
{ "type": "Feature", "properties": { "station_id": 1148, "ab_local_code": "42R802", "ab_eoi_code": "BETR802", "ab_name": "42R802 - Borgerhout", "ab_area_type_of_station": "urban - Traffic", "network": "Flanders" }, "geometry": { "type": "Point", "coordinates": [ 4.431792230792442, 51.209518731592645 ] } },
{ "type": "Feature", "properties": { "station_id": 1720, "ab_local_code": "42R803", "ab_eoi_code": "BETR803", "ab_name": "42R803 - Antwerpen (Park Spoor Noord)", "ab_area_type_of_station": "suburban - Industrial", "network": "Flanders" }, "geometry": { "type": "Point", "coordinates": [ 4.428454177535568, 51.228629813072871 ] } },
{ "type": "Feature", "properties": { "station_id": 1723, "ab_local_code": "42R804", "ab_eoi_code": "BETR804", "ab_name": "42R804 - Antwerpen (Ring)", "ab_area_type_of_station": "suburban - Industrial", "network": "Flanders" }, "geometry": { "type": "Point", "coordinates": [ 4.441947090848597, 51.206303948663901 ] } },
{ "type": "Feature", "properties": { "station_id": 1713, "ab_local_code": "42R805", "ab_eoi_code": "BETR805", "ab_name": "42R805 - Antwerpen (Belgiëlei)", "ab_area_type_of_station": "suburban - Industrial", "network": "Flanders" }, "geometry": { "type": "Point", "coordinates": [ 4.421559251065275, 51.208229471826343 ] } },
{ "type": "Feature", "properties": { "station_id": 1737, "ab_local_code": "42R806", "ab_eoi_code": "BETR806", "ab_name": "42R806 - Maerlant", "ab_area_type_of_station": "urban - Traffic", "network": "Flanders" }, "geometry": { "type": "Point", "coordinates": [ 4.417539976113199, 51.223286803052751 ] } },
{ "type": "Feature", "properties": { "station_id": 1727, "ab_local_code": "42R818", "ab_eoi_code": "BETR818", "ab_name": "42R818 - Antwerpen (Burchtse Weel)", "ab_area_type_of_station": "suburban - Industrial", "network": "Flanders" }, "geometry": { "type": "Point", "coordinates": [ 4.350554534328846, 51.21225810854925 ] } },
{ "type": "Feature", "properties": { "station_id": 1155, "ab_local_code": "42R820", "ab_eoi_code": "BETR820", "ab_name": "42R820 - Kapellen", "ab_area_type_of_station": "suburban - Background", "network": "Flanders" }, "geometry": { "type": "Point", "coordinates": [ 4.444810618980056, 51.320416785321278 ] } },
{ "type": "Feature", "properties": { "station_id": 1743, "ab_local_code": "42R823", "ab_eoi_code": "BETR823", "ab_name": "42R823 - Beveren", "ab_area_type_of_station": "suburban - Industrial", "network": "Flanders" }, "geometry": { "type": "Point", "coordinates": [ 4.239930592809777, 51.213250604220057 ] } },
{ "type": "Feature", "properties": { "station_id": 1158, "ab_local_code": "42R830", "ab_eoi_code": "BETR830", "ab_name": "42R830 - Doel", "ab_area_type_of_station": "rural - Industrial", "network": "Flanders" }, "geometry": { "type": "Point", "coordinates": [ 4.26263372958256, 51.318228630291031 ] } },
{ "type": "Feature", "properties": { "station_id": 1173, "ab_local_code": "43N060", "ab_eoi_code": "BETN060", "ab_name": "43N060 - Havinnes", "ab_area_type_of_station": "unknown - Unknown", "network": "Wallonia" }, "geometry": { "type": "Point", "coordinates": [ 3.457624427181732, 50.616718401804128 ] } },
{ "type": "Feature", "properties": { "station_id": 1174, "ab_local_code": "43N063", "ab_eoi_code": "BETN063", "ab_name": "43N063 - Corroy-Le-Grand", "ab_area_type_of_station": "rural - Background", "network": "Wallonia" }, "geometry": { "type": "Point", "coordinates": [ 4.668287682824639, 50.655439103410671 ] } },
{ "type": "Feature", "properties": { "station_id": 1176, "ab_local_code": "43N066", "ab_eoi_code": "BETN066", "ab_name": "43N066 - Eupen", "ab_area_type_of_station": "rural - Background", "network": "Wallonia" }, "geometry": { "type": "Point", "coordinates": [ 6.002328686936964, 50.628860259828059 ] } },
{ "type": "Feature", "properties": { "station_id": 1177, "ab_local_code": "43N067", "ab_eoi_code": "BETN067", "ab_name": "43N067 - Membach", "ab_area_type_of_station": "unknown - Unknown", "network": "Wallonia" }, "geometry": { "type": "Point", "coordinates": [ 5.992752719187057, 50.61227752814424 ] } },
{ "type": "Feature", "properties": { "station_id": 1178, "ab_local_code": "43N070", "ab_eoi_code": "BETN070", "ab_name": "43N070 - Mons", "ab_area_type_of_station": "suburban - Background", "network": "Wallonia" }, "geometry": { "type": "Point", "coordinates": [ 3.93971432552384, 50.465192156437404 ] } },
{ "type": "Feature", "properties": { "station_id": 1179, "ab_local_code": "43N073", "ab_eoi_code": "BETN073", "ab_name": "43N073 - Vezin", "ab_area_type_of_station": "rural - Background", "network": "Wallonia" }, "geometry": { "type": "Point", "coordinates": [ 4.98842295409252, 50.502716341053066 ] } },
{ "type": "Feature", "properties": { "station_id": 1180, "ab_local_code": "43N085", "ab_eoi_code": "BETN085", "ab_name": "43N085 - Vielsalm", "ab_area_type_of_station": "rural - Background", "network": "Wallonia" }, "geometry": { "type": "Point", "coordinates": [ 6.001736288537823, 50.30320782819944 ] } },
{ "type": "Feature", "properties": { "station_id": 1181, "ab_local_code": "43N093", "ab_eoi_code": "BETN093", "ab_name": "43N093 - Sinsin", "ab_area_type_of_station": "rural - Background", "network": "Wallonia" }, "geometry": { "type": "Point", "coordinates": [ 5.235168654774105, 50.274477510960537 ] } },
{ "type": "Feature", "properties": { "station_id": 1182, "ab_local_code": "43N100", "ab_eoi_code": "BETN100", "ab_name": "43N100 - Dourbes", "ab_area_type_of_station": "rural - Background", "network": "Wallonia" }, "geometry": { "type": "Point", "coordinates": [ 4.594762762155877, 50.095683434202293 ] } },
{ "type": "Feature", "properties": { "station_id": 1183, "ab_local_code": "43N113", "ab_eoi_code": "BETN113", "ab_name": "43N113 - Sainte-Ode", "ab_area_type_of_station": "rural - Background", "network": "Wallonia" }, "geometry": { "type": "Point", "coordinates": [ 5.593016914066443, 50.02702901735924 ] } },
{ "type": "Feature", "properties": { "station_id": 1184, "ab_local_code": "43N121", "ab_eoi_code": "BETN121", "ab_name": "43N121 - Offagne", "ab_area_type_of_station": "rural - Background", "network": "Wallonia" }, "geometry": { "type": "Point", "coordinates": [ 5.202387466800062, 49.877128491341061 ] } },
{ "type": "Feature", "properties": { "station_id": 1185, "ab_local_code": "43N132", "ab_eoi_code": "BETN132", "ab_name": "43N132 - Habay-La-Neuve", "ab_area_type_of_station": "rural - Background", "network": "Wallonia" }, "geometry": { "type": "Point", "coordinates": [ 5.630397740609142, 49.719281187893159 ] } },
{ "type": "Feature", "properties": { "station_id": 1740, "ab_local_code": "43R202", "ab_eoi_code": "BETR202", "ab_name": "43R202 - Liège", "ab_area_type_of_station": "urban - Traffic", "network": "Wallonia" }, "geometry": { "type": "Point", "coordinates": [ 5.571781423606138, 50.637978311015168 ] } },
{ "type": "Feature", "properties": { "station_id": 1190, "ab_local_code": "43R221", "ab_eoi_code": "BETR221", "ab_name": "43R221 - Liège", "ab_area_type_of_station": "urban - Background", "network": "Wallonia" }, "geometry": { "type": "Point", "coordinates": [ 5.627835290852655, 50.658444416796776 ] } },
{ "type": "Feature", "properties": { "station_id": 1191, "ab_local_code": "43R222", "ab_eoi_code": "BETR222", "ab_name": "43R222 - Seraing", "ab_area_type_of_station": "suburban - Background", "network": "Wallonia" }, "geometry": { "type": "Point", "coordinates": [ 5.570222814112579, 50.613412501492206 ] } },
{ "type": "Feature", "properties": { "station_id": 1192, "ab_local_code": "43R223", "ab_eoi_code": "BETR223", "ab_name": "43R223 - Jemeppe", "ab_area_type_of_station": "suburban - Industrial", "network": "Wallonia" }, "geometry": { "type": "Point", "coordinates": [ 5.516404755142996, 50.620670878849502 ] } },
{ "type": "Feature", "properties": { "station_id": 1195, "ab_local_code": "43R240", "ab_eoi_code": "BETR240", "ab_name": "43R240 - Engis", "ab_area_type_of_station": "suburban - Industrial", "network": "Wallonia" }, "geometry": { "type": "Point", "coordinates": [ 5.39744605012733, 50.583614347378976 ] } },
{ "type": "Feature", "properties": { "station_id": 1733, "ab_local_code": "43R401", "ab_eoi_code": "BETR401", "ab_name": "43R401 - Namur", "ab_area_type_of_station": "suburban - Background", "network": "Wallonia" }, "geometry": { "type": "Point", "coordinates": [ 4.865260946011647, 50.462427939615139 ] } },
{ "type": "Feature", "properties": { "station_id": 1196, "ab_local_code": "44M702", "ab_eoi_code": "BETM702", "ab_name": "44M702 - Ertvelde", "ab_area_type_of_station": "rural - Industrial", "network": "Flanders" }, "geometry": { "type": "Point", "coordinates": [ 3.762137359100638, 51.166023221159207 ] } },
{ "type": "Feature", "properties": { "station_id": 1198, "ab_local_code": "44M705", "ab_eoi_code": "BETM705", "ab_name": "44M705 - Roeselare", "ab_area_type_of_station": "suburban - Industrial", "network": "Flanders" }, "geometry": { "type": "Point", "coordinates": [ 3.152401590470016, 50.945359241360102 ] } },
{ "type": "Feature", "properties": { "station_id": 1200, "ab_local_code": "44N012", "ab_eoi_code": "BETN012", "ab_name": "44N012 - Moerkerke", "ab_area_type_of_station": "rural - Background", "network": "Flanders" }, "geometry": { "type": "Point", "coordinates": [ 3.362535888701605, 51.254573622445513 ] } },
{ "type": "Feature", "properties": { "station_id": 1202, "ab_local_code": "44N029", "ab_eoi_code": "BETN029", "ab_name": "44N029 - Houtem", "ab_area_type_of_station": "rural - Background", "network": "Flanders" }, "geometry": { "type": "Point", "coordinates": [ 2.582322781489746, 51.016280111147516 ] } },
{ "type": "Feature", "properties": { "station_id": 1205, "ab_local_code": "44N051", "ab_eoi_code": "BETN051", "ab_name": "44N051 - Idegem", "ab_area_type_of_station": "rural - Background", "network": "Flanders" }, "geometry": { "type": "Point", "coordinates": [ 3.930293237601766, 50.798915603699022 ] } },
{ "type": "Feature", "properties": { "station_id": 1206, "ab_local_code": "44N052", "ab_eoi_code": "BETN052", "ab_name": "44N052 - Zwevegem", "ab_area_type_of_station": "suburban - Background", "network": "Flanders" }, "geometry": { "type": "Point", "coordinates": [ 3.322494319037279, 50.814873869929691 ] } },
{ "type": "Feature", "properties": { "station_id": 1207, "ab_local_code": "44R701", "ab_eoi_code": "BETR701", "ab_name": "44R701 - Gent", "ab_area_type_of_station": "urban - Background", "network": "Flanders" }, "geometry": { "type": "Point", "coordinates": [ 3.729298171690589, 51.058331716274282 ] } },
{ "type": "Feature", "properties": { "station_id": 1715, "ab_local_code": "44R702", "ab_eoi_code": "BETR702", "ab_name": "44R702 - Gent (Carlierlaan)", "ab_area_type_of_station": "urban - Traffic", "network": "Flanders" }, "geometry": { "type": "Point", "coordinates": [ 3.734971479685311, 51.040689419436973 ] } },
{ "type": "Feature", "properties": { "station_id": 1732, "ab_local_code": "44R703", "ab_eoi_code": "BETR703", "ab_name": "44R703 - Gent (Lange Violettestraat)", "ab_area_type_of_station": "urban - Traffic", "network": "Flanders" }, "geometry": { "type": "Point", "coordinates": [ 3.734274548131832, 51.046879295396373 ] } },
{ "type": "Feature", "properties": { "station_id": 1208, "ab_local_code": "44R710", "ab_eoi_code": "BETR710", "ab_name": "44R710 - Destelbergen", "ab_area_type_of_station": "suburban - Background", "network": "Flanders" }, "geometry": { "type": "Point", "coordinates": [ 3.775262389645363, 51.061277697664053 ] } },
{ "type": "Feature", "properties": { "station_id": 1210, "ab_local_code": "44R721", "ab_eoi_code": "BETR721", "ab_name": "44R721 - Wondelgem", "ab_area_type_of_station": "suburban - Industrial", "network": "Flanders" }, "geometry": { "type": "Point", "coordinates": [ 3.716119370696023, 51.088957723673715 ] } },
{ "type": "Feature", "properties": { "station_id": 1212, "ab_local_code": "44R731", "ab_eoi_code": "BETR731", "ab_name": "44R731 - Evergem", "ab_area_type_of_station": "suburban - Industrial", "network": "Flanders" }, "geometry": { "type": "Point", "coordinates": [ 3.739504220441929, 51.124690511909286 ] } },
{ "type": "Feature", "properties": { "station_id": 1213, "ab_local_code": "44R740", "ab_eoi_code": "BETR740", "ab_name": "44R740 - Sint-Kruiswinkel", "ab_area_type_of_station": "rural - Industrial", "network": "Flanders" }, "geometry": { "type": "Point", "coordinates": [ 3.808735430412746, 51.150136090010051 ] } },
{ "type": "Feature", "properties": { "station_id": 1214, "ab_local_code": "44R750", "ab_eoi_code": "BETR750", "ab_name": "44R750 - Zelzate", "ab_area_type_of_station": "suburban - Industrial", "network": "Flanders" }, "geometry": { "type": "Point", "coordinates": [ 3.822920046804336, 51.196063268508496 ] } },
{ "type": "Feature", "properties": { "station_id": 1070, "ab_local_code": "44RL01", "ab_eoi_code": "BELRL01", "ab_name": "44RL01 - Roeselare", "ab_area_type_of_station": "suburban - Background", "network": "Flanders" }, "geometry": { "type": "Point", "coordinates": [ 3.121155598901247, 50.953177280248283 ] } },
{ "type": "Feature", "properties": { "station_id": 1217, "ab_local_code": "45R501", "ab_eoi_code": "BETR501", "ab_name": "45R501 - Charleroi", "ab_area_type_of_station": "urban - Traffic", "network": "Wallonia" }, "geometry": { "type": "Point", "coordinates": [ 4.45217178104986, 50.409311452025548 ] } },
{ "type": "Feature", "properties": { "station_id": 1218, "ab_local_code": "45R502", "ab_eoi_code": "BETR502", "ab_name": "45R502 - Lodelinsart", "ab_area_type_of_station": "suburban - Background", "network": "Wallonia" }, "geometry": { "type": "Point", "coordinates": [ 4.458680858021721, 50.428995392906799 ] } },
{ "type": "Feature", "properties": { "station_id": 1219, "ab_local_code": "45R510", "ab_eoi_code": "BETR510", "ab_name": "45R510 - Châtelineau", "ab_area_type_of_station": "suburban - Background", "network": "Wallonia" }, "geometry": { "type": "Point", "coordinates": [ 4.521130208130445, 50.41643335954867 ] } },
{ "type": "Feature", "properties": { "station_id": 1220, "ab_local_code": "45R511", "ab_eoi_code": "BETR511", "ab_name": "45R511 - Marcinelle", "ab_area_type_of_station": "suburban - Background", "network": "Wallonia" }, "geometry": { "type": "Point", "coordinates": [ 4.42470045040247, 50.377592102138813 ] } },
{ "type": "Feature", "properties": { "station_id": 1221, "ab_local_code": "45R512", "ab_eoi_code": "BETR512", "ab_name": "45R512 - Marchienne", "ab_area_type_of_station": "suburban - Industrial", "network": "Wallonia" }, "geometry": { "type": "Point", "coordinates": [ 4.39589711703924, 50.407810199427303 ] } },
{ "type": "Feature", "properties": { "station_id": 1231, "ab_local_code": "47E007", "ab_eoi_code": "BETE007", "ab_name": "47E007 - Sint-Pieters-Leeuw", "ab_area_type_of_station": "unknown - Unknown", "network": "Flanders" }, "geometry": { "type": "Point", "coordinates": [ 4.252628452872861, 50.795298626698028 ] } },
{ "type": "Feature", "properties": { "station_id": 1232, "ab_local_code": "47E008", "ab_eoi_code": "BETE008", "ab_name": "47E008 - Grimbergen", "ab_area_type_of_station": "unknown - Unknown", "network": "Flanders" }, "geometry": { "type": "Point", "coordinates": [ 4.395920014137029, 50.926095116101621 ] } },
{ "type": "Feature", "properties": { "station_id": 1233, "ab_local_code": "47E009", "ab_eoi_code": "BETE009", "ab_name": "47E009 - Zemst", "ab_area_type_of_station": "unknown - Unknown", "network": "Flanders" }, "geometry": { "type": "Point", "coordinates": [ 4.435416984927746, 50.954916687944142 ] } },
{ "type": "Feature", "properties": { "station_id": 1234, "ab_local_code": "47E013", "ab_eoi_code": "BETE013", "ab_name": "47E013 - Vorst", "ab_area_type_of_station": "unknown - Unknown", "network": "Brussels" }, "geometry": { "type": "Point", "coordinates": [ 4.328384665101026, 50.811700894030601 ] } },
{ "type": "Feature", "properties": { "station_id": 1237, "ab_local_code": "47E703", "ab_eoi_code": "BETE703", "ab_name": "47E703 - Oosteeklo", "ab_area_type_of_station": "rural - Industrial", "network": "Flanders" }, "geometry": { "type": "Point", "coordinates": [ 3.687295756351991, 51.190317041581793 ] } },
{ "type": "Feature", "properties": { "station_id": 1722, "ab_local_code": "47E704", "ab_eoi_code": "BETE704", "ab_name": "47E704 - Wachtebeke", "ab_area_type_of_station": "suburban - Industrial", "network": "Flanders" }, "geometry": { "type": "Point", "coordinates": [ 3.869928172752211, 51.17610010407666 ] } },
{ "type": "Feature", "properties": { "station_id": 1239, "ab_local_code": "47E714", "ab_eoi_code": "BETE714", "ab_name": "47E714 - Dudzele", "ab_area_type_of_station": "suburban - Industrial", "network": "Flanders" }, "geometry": { "type": "Point", "coordinates": [ 3.248624062941198, 51.278963303566577 ] } },
{ "type": "Feature", "properties": { "station_id": 1240, "ab_local_code": "47E715", "ab_eoi_code": "BETE715", "ab_name": "47E715 - Zuienkerke", "ab_area_type_of_station": "rural - Industrial", "network": "Flanders" }, "geometry": { "type": "Point", "coordinates": [ 3.174984201680891, 51.245864216684971 ] } },
{ "type": "Feature", "properties": { "station_id": 1241, "ab_local_code": "47E716", "ab_eoi_code": "BETE716", "ab_name": "47E716 - Mariakerke", "ab_area_type_of_station": "suburban - Industrial", "network": "Flanders" }, "geometry": { "type": "Point", "coordinates": [ 3.682813017203127, 51.066987901531064 ] } },
{ "type": "Feature", "properties": { "station_id": 1716, "ab_local_code": "47E814", "ab_eoi_code": "BETE814", "ab_name": "47E814 - Ham", "ab_area_type_of_station": "suburban - Industrial", "network": "Flanders" }, "geometry": { "type": "Point", "coordinates": [ 5.129718074812026, 51.082187223523484 ] } },
{ "type": "Feature", "properties": { "station_id": 1752, "ab_local_code": "48R515", "ab_eoi_code": "BETR515", "ab_name": "48R515 - Aeroport 1", "ab_area_type_of_station": "urban - Traffic", "network": "Wallonia" }, "geometry": { "type": "Point", "coordinates": [ 4.425464746587247, 50.451600180554664 ] } },
{ "type": "Feature", "properties": { "station_id": 1753, "ab_local_code": "48R516", "ab_eoi_code": "BETR516", "ab_name": "48R516 - Aeroport 2", "ab_area_type_of_station": "urban - Traffic", "network": "Wallonia" }, "geometry": { "type": "Point", "coordinates": [ 4.484957959246504, 50.469131603884563 ] } },
{ "type": "Feature", "properties": { "station_id": 1725, "ab_local_code": "T2H801", "ab_eoi_code": "BEXH801", "ab_name": "T2H801 - Zwijndrecht", "ab_area_type_of_station": "suburban - Industrial", "network": "Flanders" }, "geometry": { "type": "Point", "coordinates": [ 4.333959808028442, 51.243740718808745 ] } }
]
}
